Stop_ID,Stop_name,time_bin,actual
15351,Sunbury,pre_AM_peak,438
15351,Sunbury,AM_peak,785
15351,Sunbury,interpeak,409
15351,Sunbury,PM_peak,367
15351,Sunbury,PM_late,99
15353,Diggers Rest,pre_AM_peak,163
15353,Diggers Rest,AM_peak,488
15353,Diggers Rest,interpeak,168
15353,Diggers Rest,PM_peak,80
15353,Diggers Rest,PM_late,87
19827,Stony Point,pre_AM_peak,19
19827,Stony Point,AM_peak,26
19827,Stony Point,interpeak,21
19827,Stony Point,PM_peak,17
19827,Stony Point,PM_late,17
19828,Crib Point,pre_AM_peak,52
19828,Crib Point,AM_peak,48
19828,Crib Point,interpeak,53
19828,Crib Point,PM_peak,52
19828,Crib Point,PM_late,49
19829,Morradoo,pre_AM_peak,45
19829,Morradoo,AM_peak,42
19829,Morradoo,interpeak,47
19829,Morradoo,PM_peak,54
19829,Morradoo,PM_late,51
19830,Bittern,pre_AM_peak,43
19830,Bittern,AM_peak,50
19830,Bittern,interpeak,51
19830,Bittern,PM_peak,45
19830,Bittern,PM_late,50
19831,Hastings,pre_AM_peak,50
19831,Hastings,AM_peak,44
19831,Hastings,interpeak,51
19831,Hastings,PM_peak,52
19831,Hastings,PM_late,55
19832,Tyabb,pre_AM_peak,85
19832,Tyabb,AM_peak,73
19832,Tyabb,interpeak,75
19832,Tyabb,PM_peak,82
19832,Tyabb,PM_late,82
19833,Somerville,pre_AM_peak,52
19833,Somerville,AM_peak,69
19833,Somerville,interpeak,52
19833,Somerville,PM_peak,55
19833,Somerville,PM_late,54
19834,Baxter,pre_AM_peak,21
19834,Baxter,AM_peak,19
19834,Baxter,interpeak,21
19834,Baxter,PM_peak,18
19834,Baxter,PM_late,19
19835,Glen Iris,pre_AM_peak,47
19835,Glen Iris,AM_peak,403
19835,Glen Iris,interpeak,184
19835,Glen Iris,PM_peak,203
19835,Glen Iris,PM_late,53
19836,Leawarra,pre_AM_peak,71
19836,Leawarra,AM_peak,77
19836,Leawarra,interpeak,85
19836,Leawarra,PM_peak,80
19836,Leawarra,PM_late,74
19837,Darling,pre_AM_peak,18
19837,Darling,AM_peak,216
19837,Darling,interpeak,54
19837,Darling,PM_peak,61
19837,Darling,PM_late,20
19838,East Malvern,pre_AM_peak,46
19838,East Malvern,AM_peak,728
19838,East Malvern,interpeak,212
19838,East Malvern,PM_peak,119
19838,East Malvern,PM_late,50
19839,Holmesglen,pre_AM_peak,46
19839,Holmesglen,AM_peak,488
19839,Holmesglen,interpeak,322
19839,Holmesglen,PM_peak,345
19839,Holmesglen,PM_late,52
19840,Jordanville,pre_AM_peak,108
19840,Jordanville,AM_peak,659
19840,Jordanville,interpeak,241
19840,Jordanville,PM_peak,190
19840,Jordanville,PM_late,46
19841,Flagstaff,pre_AM_peak,176
19841,Flagstaff,AM_peak,884
19841,Flagstaff,interpeak,2228
19841,Flagstaff,PM_peak,9225
19841,Flagstaff,PM_late,1394
19842,Melbourne Central,pre_AM_peak,330
19842,Melbourne Central,AM_peak,1399
19842,Melbourne Central,interpeak,9039
19842,Melbourne Central,PM_peak,24505
19842,Melbourne Central,PM_late,6086
19843,Parliament,pre_AM_peak,156
19843,Parliament,AM_peak,915
19843,Parliament,interpeak,3583
19843,Parliament,PM_peak,15904
19843,Parliament,PM_late,1757
19844,Belgrave,pre_AM_peak,89
19844,Belgrave,AM_peak,292
19844,Belgrave,interpeak,175
19844,Belgrave,PM_peak,290
19844,Belgrave,PM_late,42
19845,Tecoma,pre_AM_peak,47
19845,Tecoma,AM_peak,101
19845,Tecoma,interpeak,57
19845,Tecoma,PM_peak,42
19845,Tecoma,PM_late,55
19846,Upwey,pre_AM_peak,50
19846,Upwey,AM_peak,135
19846,Upwey,interpeak,52
19846,Upwey,PM_peak,50
19846,Upwey,PM_late,46
19847,Alamein,pre_AM_peak,50
19847,Alamein,AM_peak,192
19847,Alamein,interpeak,50
19847,Alamein,PM_peak,53
19847,Alamein,PM_late,57
19848,Ashburton,pre_AM_peak,43
19848,Ashburton,AM_peak,485
19848,Ashburton,interpeak,120
19848,Ashburton,PM_peak,98
19848,Ashburton,PM_late,52
19849,Burwood,pre_AM_peak,51
19849,Burwood,AM_peak,468
19849,Burwood,interpeak,146
19849,Burwood,PM_peak,95
19849,Burwood,PM_late,47
19850,Hartwell,pre_AM_peak,22
19850,Hartwell,AM_peak,125
19850,Hartwell,interpeak,36
19850,Hartwell,PM_peak,44
19850,Hartwell,PM_late,20
19851,Willison,pre_AM_peak,54
19851,Willison,AM_peak,159
19851,Willison,interpeak,45
19851,Willison,PM_peak,47
19851,Willison,PM_late,53
19852,Riversdale,pre_AM_peak,53
19852,Riversdale,AM_peak,299
19852,Riversdale,interpeak,101
19852,Riversdale,PM_peak,225
19852,Riversdale,PM_late,47
19853,Camberwell,pre_AM_peak,158
19853,Camberwell,AM_peak,1077
19853,Camberwell,interpeak,831
19853,Camberwell,PM_peak,1831
19853,Camberwell,PM_late,324
19854,Flinders Street,pre_AM_peak,1189
19854,Flinders Street,AM_peak,4069
19854,Flinders Street,interpeak,12626
19854,Flinders Street,PM_peak,35944
19854,Flinders Street,PM_late,10561
19855,Frankston,pre_AM_peak,464
19855,Frankston,AM_peak,740
19855,Frankston,interpeak,858
19855,Frankston,PM_peak,741
19855,Frankston,PM_late,137
19856,Kananook,pre_AM_peak,120
19856,Kananook,AM_peak,224
19856,Kananook,interpeak,87
19856,Kananook,PM_peak,111
19856,Kananook,PM_late,53
19857,Seaford,pre_AM_peak,212
19857,Seaford,AM_peak,478
19857,Seaford,interpeak,199
19857,Seaford,PM_peak,136
19857,Seaford,PM_late,50
19858,Carrum,pre_AM_peak,229
19858,Carrum,AM_peak,763
19858,Carrum,interpeak,396
19858,Carrum,PM_peak,227
19858,Carrum,PM_late,78
19859,Bonbeach,pre_AM_peak,82
19859,Bonbeach,AM_peak,385
19859,Bonbeach,interpeak,151
19859,Bonbeach,PM_peak,81
19859,Bonbeach,PM_late,81
19860,Chelsea,pre_AM_peak,37
19860,Chelsea,AM_peak,188
19860,Chelsea,interpeak,102
19860,Chelsea,PM_peak,65
19860,Chelsea,PM_late,16
19861,Edithvale,pre_AM_peak,46
19861,Edithvale,AM_peak,342
19861,Edithvale,interpeak,154
19861,Edithvale,PM_peak,114
19861,Edithvale,PM_late,54
19862,Aspendale,pre_AM_peak,49
19862,Aspendale,AM_peak,299
19862,Aspendale,interpeak,89
19862,Aspendale,PM_peak,99
19862,Aspendale,PM_late,48
19863,Mordialloc,pre_AM_peak,103
19863,Mordialloc,AM_peak,596
19863,Mordialloc,interpeak,368
19863,Mordialloc,PM_peak,461
19863,Mordialloc,PM_late,98
19864,Parkdale,pre_AM_peak,52
19864,Parkdale,AM_peak,427
19864,Parkdale,interpeak,191
19864,Parkdale,PM_peak,255
19864,Parkdale,PM_late,50
19865,Mentone,pre_AM_peak,100
19865,Mentone,AM_peak,599
19865,Mentone,interpeak,451
19865,Mentone,PM_peak,839
19865,Mentone,PM_late,114
19866,Cheltenham,pre_AM_peak,219
19866,Cheltenham,AM_peak,1397
19866,Cheltenham,interpeak,415
19866,Cheltenham,PM_peak,489
19866,Cheltenham,PM_late,101
19867,Upper Ferntree Gully,pre_AM_peak,121
19867,Upper Ferntree Gully,AM_peak,229
19867,Upper Ferntree Gully,interpeak,91
19867,Upper Ferntree Gully,PM_peak,94
19867,Upper Ferntree Gully,PM_late,39
19868,Ferntree Gully,pre_AM_peak,232
19868,Ferntree Gully,AM_peak,990
19868,Ferntree Gully,interpeak,323
19868,Ferntree Gully,PM_peak,245
19868,Ferntree Gully,PM_late,89
19869,Boronia,pre_AM_peak,219
19869,Boronia,AM_peak,753
19869,Boronia,interpeak,318
19869,Boronia,PM_peak,209
19869,Boronia,PM_late,43
19870,Bayswater,pre_AM_peak,177
19870,Bayswater,AM_peak,782
19870,Bayswater,interpeak,285
19870,Bayswater,PM_peak,248
19870,Bayswater,PM_late,56
19871,Heathmont,pre_AM_peak,49
19871,Heathmont,AM_peak,449
19871,Heathmont,interpeak,84
19871,Heathmont,PM_peak,94
19871,Heathmont,PM_late,50
19872,Highett,pre_AM_peak,100
19872,Highett,AM_peak,572
19872,Highett,interpeak,318
19872,Highett,PM_peak,223
19872,Highett,PM_late,49
19873,Glen Waverley,pre_AM_peak,253
19873,Glen Waverley,AM_peak,1682
19873,Glen Waverley,interpeak,964
19873,Glen Waverley,PM_peak,710
19873,Glen Waverley,PM_late,211
19874,Syndal,pre_AM_peak,281
19874,Syndal,AM_peak,1291
19874,Syndal,interpeak,323
19874,Syndal,PM_peak,404
19874,Syndal,PM_late,50
19875,Mount Waverley,pre_AM_peak,257
19875,Mount Waverley,AM_peak,1687
19875,Mount Waverley,interpeak,812
19875,Mount Waverley,PM_peak,887
19875,Mount Waverley,PM_late,157
19876,Lilydale,pre_AM_peak,89
19876,Lilydale,AM_peak,259
19876,Lilydale,interpeak,187
19876,Lilydale,PM_peak,140
19876,Lilydale,PM_late,21
19877,Mooroolbark,pre_AM_peak,682
19877,Mooroolbark,AM_peak,1424
19877,Mooroolbark,interpeak,518
19877,Mooroolbark,PM_peak,349
19877,Mooroolbark,PM_late,78
19878,Croydon,pre_AM_peak,250
19878,Croydon,AM_peak,1225
19878,Croydon,interpeak,562
19878,Croydon,PM_peak,528
19878,Croydon,PM_late,73
19879,Ringwood East,pre_AM_peak,82
19879,Ringwood East,AM_peak,497
19879,Ringwood East,interpeak,207
19879,Ringwood East,PM_peak,149
19879,Ringwood East,PM_late,39
19880,Pakenham,pre_AM_peak,556
19880,Pakenham,AM_peak,734
19880,Pakenham,interpeak,750
19880,Pakenham,PM_peak,490
19880,Pakenham,PM_late,75
19881,Officer,pre_AM_peak,142
19881,Officer,AM_peak,312
19881,Officer,interpeak,149
19881,Officer,PM_peak,109
19881,Officer,PM_late,45
19882,Beaconsfield,pre_AM_peak,157
19882,Beaconsfield,AM_peak,331
19882,Beaconsfield,interpeak,92
19882,Beaconsfield,PM_peak,98
19882,Beaconsfield,PM_late,44
19883,Berwick,pre_AM_peak,661
19883,Berwick,AM_peak,1408
19883,Berwick,interpeak,897
19883,Berwick,PM_peak,602
19883,Berwick,PM_late,93
19884,Narre Warren,pre_AM_peak,255
19884,Narre Warren,AM_peak,741
19884,Narre Warren,interpeak,391
19884,Narre Warren,PM_peak,318
19884,Narre Warren,PM_late,107
19885,Hallam,pre_AM_peak,284
19885,Hallam,AM_peak,801
19885,Hallam,interpeak,340
19885,Hallam,PM_peak,230
19885,Hallam,PM_late,42
19886,Cranbourne,pre_AM_peak,909
19886,Cranbourne,AM_peak,1863
19886,Cranbourne,interpeak,780
19886,Cranbourne,PM_peak,423
19886,Cranbourne,PM_late,103
19887,Merinda Park,pre_AM_peak,221
19887,Merinda Park,AM_peak,455
19887,Merinda Park,interpeak,157
19887,Merinda Park,PM_peak,70
19887,Merinda Park,PM_late,15
19888,Dandenong,pre_AM_peak,459
19888,Dandenong,AM_peak,1247
19888,Dandenong,interpeak,1458
19888,Dandenong,PM_peak,2244
19888,Dandenong,PM_late,535
19889,Yarraman,pre_AM_peak,116
19889,Yarraman,AM_peak,380
19889,Yarraman,interpeak,249
19889,Yarraman,PM_peak,229
19889,Yarraman,PM_late,50
19890,Noble Park,pre_AM_peak,319
19890,Noble Park,AM_peak,1267
19890,Noble Park,interpeak,895
19890,Noble Park,PM_peak,761
19890,Noble Park,PM_late,147
19891,Sandown Park,pre_AM_peak,136
19891,Sandown Park,AM_peak,818
19891,Sandown Park,interpeak,382
19891,Sandown Park,PM_peak,178
19891,Sandown Park,PM_late,43
19892,East Camberwell,pre_AM_peak,21
19892,East Camberwell,AM_peak,91
19892,East Camberwell,interpeak,56
19892,East Camberwell,PM_peak,92
19892,East Camberwell,PM_late,17
19893,Canterbury,pre_AM_peak,50
19893,Canterbury,AM_peak,366
19893,Canterbury,interpeak,205
19893,Canterbury,PM_peak,248
19893,Canterbury,PM_late,48
19894,Chatham,pre_AM_peak,75
19894,Chatham,AM_peak,462
19894,Chatham,interpeak,251
19894,Chatham,PM_peak,247
19894,Chatham,PM_late,75
19897,Laburnum,pre_AM_peak,20
19897,Laburnum,AM_peak,240
19897,Laburnum,interpeak,63
19897,Laburnum,PM_peak,106
19897,Laburnum,PM_late,18
19898,Blackburn,pre_AM_peak,264
19898,Blackburn,AM_peak,1708
19898,Blackburn,interpeak,655
19898,Blackburn,PM_peak,753
19898,Blackburn,PM_late,150
19899,Nunawading,pre_AM_peak,205
19899,Nunawading,AM_peak,1136
19899,Nunawading,interpeak,531
19899,Nunawading,PM_peak,458
19899,Nunawading,PM_late,99
19900,Mitcham,pre_AM_peak,118
19900,Mitcham,AM_peak,587
19900,Mitcham,interpeak,241
19900,Mitcham,PM_peak,214
19900,Mitcham,PM_late,38
19901,Heatherdale,pre_AM_peak,90
19901,Heatherdale,AM_peak,334
19901,Heatherdale,interpeak,110
19901,Heatherdale,PM_peak,85
19901,Heatherdale,PM_late,21
19902,Ringwood,pre_AM_peak,165
19902,Ringwood,AM_peak,359
19902,Ringwood,interpeak,450
19902,Ringwood,PM_peak,643
19902,Ringwood,PM_late,136
19903,Auburn,pre_AM_peak,41
19903,Auburn,AM_peak,351
19903,Auburn,interpeak,181
19903,Auburn,PM_peak,235
19903,Auburn,PM_late,45
19904,Glenferrie,pre_AM_peak,102
19904,Glenferrie,AM_peak,1085
19904,Glenferrie,interpeak,1917
19904,Glenferrie,PM_peak,3281
19904,Glenferrie,PM_late,621
19905,Hawthorn,pre_AM_peak,51
19905,Hawthorn,AM_peak,670
19905,Hawthorn,interpeak,360
19905,Hawthorn,PM_peak,845
19905,Hawthorn,PM_late,54
19906,Burnley,pre_AM_peak,48
19906,Burnley,AM_peak,784
19906,Burnley,interpeak,479
19906,Burnley,PM_peak,1313
19906,Burnley,PM_late,134
19907,East Richmond,pre_AM_peak,70
19907,East Richmond,AM_peak,469
19907,East Richmond,interpeak,480
19907,East Richmond,PM_peak,2563
19907,East Richmond,PM_late,244
19908,Richmond,pre_AM_peak,146
19908,Richmond,AM_peak,974
19908,Richmond,interpeak,1051
19908,Richmond,PM_peak,4503
19908,Richmond,PM_late,3015
19909,Heyington,pre_AM_peak,42
19909,Heyington,AM_peak,167
19909,Heyington,interpeak,155
19909,Heyington,PM_peak,431
19909,Heyington,PM_late,53
19910,Kooyong,pre_AM_peak,61
19910,Kooyong,AM_peak,254
19910,Kooyong,interpeak,204
19910,Kooyong,PM_peak,286
19910,Kooyong,PM_late,45
19911,Tooronga,pre_AM_peak,54
19911,Tooronga,AM_peak,594
19911,Tooronga,interpeak,251
19911,Tooronga,PM_peak,523
19911,Tooronga,PM_late,52
19912,Gardiner,pre_AM_peak,51
19912,Gardiner,AM_peak,717
19912,Gardiner,interpeak,237
19912,Gardiner,PM_peak,243
19912,Gardiner,PM_late,45
19913,Springvale,pre_AM_peak,113
19913,Springvale,AM_peak,502
19913,Springvale,interpeak,569
19913,Springvale,PM_peak,477
19913,Springvale,PM_late,155
19914,Westall,pre_AM_peak,170
19914,Westall,AM_peak,781
19914,Westall,interpeak,534
19914,Westall,PM_peak,461
19914,Westall,PM_late,87
19915,Clayton,pre_AM_peak,497
19915,Clayton,AM_peak,2361
19915,Clayton,interpeak,2165
19915,Clayton,PM_peak,2391
19915,Clayton,PM_late,732
19916,Huntingdale,pre_AM_peak,177
19916,Huntingdale,AM_peak,1742
19916,Huntingdale,interpeak,1519
19916,Huntingdale,PM_peak,2577
19916,Huntingdale,PM_late,589
19917,Oakleigh,pre_AM_peak,262
19917,Oakleigh,AM_peak,1533
19917,Oakleigh,interpeak,1197
19917,Oakleigh,PM_peak,2041
19917,Oakleigh,PM_late,475
19918,Hughesdale,pre_AM_peak,46
19918,Hughesdale,AM_peak,383
19918,Hughesdale,interpeak,149
19918,Hughesdale,PM_peak,157
19918,Hughesdale,PM_late,39
19919,Murrumbeena,pre_AM_peak,60
19919,Murrumbeena,AM_peak,591
19919,Murrumbeena,interpeak,157
19919,Murrumbeena,PM_peak,190
19919,Murrumbeena,PM_late,39
19920,Carnegie,pre_AM_peak,143
19920,Carnegie,AM_peak,1303
19920,Carnegie,interpeak,667
19920,Carnegie,PM_peak,757
19920,Carnegie,PM_late,251
19921,Werribee,pre_AM_peak,201
19921,Werribee,AM_peak,553
19921,Werribee,interpeak,325
19921,Werribee,PM_peak,241
19921,Werribee,PM_late,38
19922,Hoppers Crossing,pre_AM_peak,424
19922,Hoppers Crossing,AM_peak,1463
19922,Hoppers Crossing,interpeak,680
19922,Hoppers Crossing,PM_peak,438
19922,Hoppers Crossing,PM_late,49
19923,Laverton,pre_AM_peak,341
19923,Laverton,AM_peak,1711
19923,Laverton,interpeak,770
19923,Laverton,PM_peak,500
19923,Laverton,PM_late,48
19924,Aircraft,pre_AM_peak,133
19924,Aircraft,AM_peak,440
19924,Aircraft,interpeak,150
19924,Aircraft,PM_peak,150
19924,Aircraft,PM_late,49
19925,Westona,pre_AM_peak,101
19925,Westona,AM_peak,295
19925,Westona,interpeak,141
19925,Westona,PM_peak,236
19925,Westona,PM_late,49
19926,Altona,pre_AM_peak,47
19926,Altona,AM_peak,278
19926,Altona,interpeak,202
19926,Altona,PM_peak,194
19926,Altona,PM_late,57
19927,Seaholme,pre_AM_peak,36
19927,Seaholme,AM_peak,166
19927,Seaholme,interpeak,56
19927,Seaholme,PM_peak,39
19927,Seaholme,PM_late,48
19928,Westgarth,pre_AM_peak,48
19928,Westgarth,AM_peak,257
19928,Westgarth,interpeak,138
19928,Westgarth,PM_peak,133
19928,Westgarth,PM_late,58
19929,Dennis,pre_AM_peak,54
19929,Dennis,AM_peak,619
19929,Dennis,interpeak,160
19929,Dennis,PM_peak,133
19929,Dennis,PM_late,47
19930,Fairfield,pre_AM_peak,52
19930,Fairfield,AM_peak,614
19930,Fairfield,interpeak,321
19930,Fairfield,PM_peak,292
19930,Fairfield,PM_late,48
19931,Alphington,pre_AM_peak,83
19931,Alphington,AM_peak,739
19931,Alphington,interpeak,234
19931,Alphington,PM_peak,343
19931,Alphington,PM_late,74
19932,Darebin,pre_AM_peak,53
19932,Darebin,AM_peak,211
19932,Darebin,interpeak,96
19932,Darebin,PM_peak,103
19932,Darebin,PM_late,43
19933,Ivanhoe,pre_AM_peak,218
19933,Ivanhoe,AM_peak,981
19933,Ivanhoe,interpeak,331
19933,Ivanhoe,PM_peak,552
19933,Ivanhoe,PM_late,46
19934,Eaglemont,pre_AM_peak,16
19934,Eaglemont,AM_peak,80
19934,Eaglemont,interpeak,43
19934,Eaglemont,PM_peak,16
19934,Eaglemont,PM_late,24
19935,Heidelberg,pre_AM_peak,158
19935,Heidelberg,AM_peak,1403
19935,Heidelberg,interpeak,612
19935,Heidelberg,PM_peak,891
19935,Heidelberg,PM_late,94
19936,Rosanna,pre_AM_peak,155
19936,Rosanna,AM_peak,747
19936,Rosanna,interpeak,277
19936,Rosanna,PM_peak,151
19936,Rosanna,PM_late,50
19937,Moorabbin,pre_AM_peak,96
19937,Moorabbin,AM_peak,596
19937,Moorabbin,interpeak,463
19937,Moorabbin,PM_peak,414
19937,Moorabbin,PM_late,86
19938,Patterson,pre_AM_peak,53
19938,Patterson,AM_peak,508
19938,Patterson,interpeak,196
19938,Patterson,PM_peak,200
19938,Patterson,PM_late,51
19939,Bentleigh,pre_AM_peak,154
19939,Bentleigh,AM_peak,1065
19939,Bentleigh,interpeak,809
19939,Bentleigh,PM_peak,675
19939,Bentleigh,PM_late,164
19940,McKinnon,pre_AM_peak,15
19940,McKinnon,AM_peak,270
19940,McKinnon,interpeak,105
19940,McKinnon,PM_peak,82
19940,McKinnon,PM_late,22
19941,Ormond,pre_AM_peak,116
19941,Ormond,AM_peak,881
19941,Ormond,interpeak,326
19941,Ormond,PM_peak,305
19941,Ormond,PM_late,46
19942,Glenhuntly,pre_AM_peak,160
19942,Glenhuntly,AM_peak,1404
19942,Glenhuntly,interpeak,763
19942,Glenhuntly,PM_peak,728
19942,Glenhuntly,PM_late,152
19943,Caulfield,pre_AM_peak,92
19943,Caulfield,AM_peak,774
19943,Caulfield,interpeak,884
19943,Caulfield,PM_peak,1196
19943,Caulfield,PM_late,421
19944,Malvern,pre_AM_peak,55
19944,Malvern,AM_peak,588
19944,Malvern,interpeak,757
19944,Malvern,PM_peak,839
19944,Malvern,PM_late,152
19945,Armadale,pre_AM_peak,75
19945,Armadale,AM_peak,1085
19945,Armadale,interpeak,539
19945,Armadale,PM_peak,806
19945,Armadale,PM_late,92
19946,Toorak,pre_AM_peak,49
19946,Toorak,AM_peak,668
19946,Toorak,interpeak,278
19946,Toorak,PM_peak,448
19946,Toorak,PM_late,58
19947,Hawksburn,pre_AM_peak,18
19947,Hawksburn,AM_peak,318
19947,Hawksburn,interpeak,130
19947,Hawksburn,PM_peak,130
19947,Hawksburn,PM_late,21
19948,Sandringham,pre_AM_peak,254
19948,Sandringham,AM_peak,1579
19948,Sandringham,interpeak,649
19948,Sandringham,PM_peak,687
19948,Sandringham,PM_late,157
19949,Hampton,pre_AM_peak,99
19949,Hampton,AM_peak,796
19949,Hampton,interpeak,356
19949,Hampton,PM_peak,259
19949,Hampton,PM_late,103
19950,Brighton Beach,pre_AM_peak,53
19950,Brighton Beach,AM_peak,475
19950,Brighton Beach,interpeak,277
19950,Brighton Beach,PM_peak,216
19950,Brighton Beach,PM_late,52
19951,Middle Brighton,pre_AM_peak,49
19951,Middle Brighton,AM_peak,458
19951,Middle Brighton,interpeak,417
19951,Middle Brighton,PM_peak,459
19951,Middle Brighton,PM_late,102
19952,North Brighton,pre_AM_peak,43
19952,North Brighton,AM_peak,668
19952,North Brighton,interpeak,386
19952,North Brighton,PM_peak,398
19952,North Brighton,PM_late,106
19953,Gardenvale,pre_AM_peak,20
19953,Gardenvale,AM_peak,240
19953,Gardenvale,interpeak,111
19953,Gardenvale,PM_peak,130
19953,Gardenvale,PM_late,20
19954,Elsternwick,pre_AM_peak,155
19954,Elsternwick,AM_peak,1790
19954,Elsternwick,interpeak,784
19954,Elsternwick,PM_peak,973
19954,Elsternwick,PM_late,232
19955,Ripponlea,pre_AM_peak,56
19955,Ripponlea,AM_peak,728
19955,Ripponlea,interpeak,294
19955,Ripponlea,PM_peak,286
19955,Ripponlea,PM_late,57
19956,Balaclava,pre_AM_peak,101
19956,Balaclava,AM_peak,1213
19956,Balaclava,interpeak,425
19956,Balaclava,PM_peak,616
19956,Balaclava,PM_late,163
19957,Windsor,pre_AM_peak,100
19957,Windsor,AM_peak,829
19957,Windsor,interpeak,331
19957,Windsor,PM_peak,741
19957,Windsor,PM_late,245
19958,Prahran,pre_AM_peak,96
19958,Prahran,AM_peak,764
19958,Prahran,interpeak,687
19958,Prahran,PM_peak,1389
19958,Prahran,PM_late,236
19959,South Yarra,pre_AM_peak,287
19959,South Yarra,AM_peak,2526
19959,South Yarra,interpeak,2163
19959,South Yarra,PM_peak,4177
19959,South Yarra,PM_late,854
19960,Upfield,pre_AM_peak,46
19960,Upfield,AM_peak,249
19960,Upfield,interpeak,255
19960,Upfield,PM_peak,346
19960,Upfield,PM_late,45
19961,Gowrie,pre_AM_peak,84
19961,Gowrie,AM_peak,473
19961,Gowrie,interpeak,319
19961,Gowrie,PM_peak,250
19961,Gowrie,PM_late,74
19962,Fawkner,pre_AM_peak,51
19962,Fawkner,AM_peak,254
19962,Fawkner,interpeak,104
19962,Fawkner,PM_peak,102
19962,Fawkner,PM_late,62
19963,Merlynston,pre_AM_peak,93
19963,Merlynston,AM_peak,473
19963,Merlynston,interpeak,187
19963,Merlynston,PM_peak,141
19963,Merlynston,PM_late,46
19964,Batman,pre_AM_peak,22
19964,Batman,AM_peak,164
19964,Batman,interpeak,55
19964,Batman,PM_peak,53
19964,Batman,PM_late,21
19965,Coburg,pre_AM_peak,94
19965,Coburg,AM_peak,691
19965,Coburg,interpeak,408
19965,Coburg,PM_peak,296
19965,Coburg,PM_late,57
19966,Moreland,pre_AM_peak,88
19966,Moreland,AM_peak,615
19966,Moreland,interpeak,312
19966,Moreland,PM_peak,325
19966,Moreland,PM_late,81
19967,Anstey,pre_AM_peak,166
19967,Anstey,AM_peak,990
19967,Anstey,interpeak,395
19967,Anstey,PM_peak,304
19967,Anstey,PM_late,73
19968,Brunswick,pre_AM_peak,46
19968,Brunswick,AM_peak,299
19968,Brunswick,interpeak,353
19968,Brunswick,PM_peak,379
19968,Brunswick,PM_late,102
19969,Jewell,pre_AM_peak,49
19969,Jewell,AM_peak,391
19969,Jewell,interpeak,375
19969,Jewell,PM_peak,378
19969,Jewell,PM_late,95
19970,Royal Park,pre_AM_peak,55
19970,Royal Park,AM_peak,160
19970,Royal Park,interpeak,355
19970,Royal Park,PM_peak,423
19970,Royal Park,PM_late,48
19971,Flemington Bridge,pre_AM_peak,52
19971,Flemington Bridge,AM_peak,277
19971,Flemington Bridge,interpeak,270
19971,Flemington Bridge,PM_peak,315
19971,Flemington Bridge,PM_late,55
19972,Macaulay,pre_AM_peak,55
19972,Macaulay,AM_peak,227
19972,Macaulay,interpeak,372
19972,Macaulay,PM_peak,344
19972,Macaulay,PM_late,50
19973,North Melbourne,pre_AM_peak,168
19973,North Melbourne,AM_peak,550
19973,North Melbourne,interpeak,829
19973,North Melbourne,PM_peak,1777
19973,North Melbourne,PM_late,451
19974,Clifton Hill,pre_AM_peak,112
19974,Clifton Hill,AM_peak,815
19974,Clifton Hill,interpeak,502
19974,Clifton Hill,PM_peak,518
19974,Clifton Hill,PM_late,161
19975,Victoria Park,pre_AM_peak,53
19975,Victoria Park,AM_peak,729
19975,Victoria Park,interpeak,387
19975,Victoria Park,PM_peak,970
19975,Victoria Park,PM_late,204
19976,Collingwood,pre_AM_peak,57
19976,Collingwood,AM_peak,297
19976,Collingwood,interpeak,308
19976,Collingwood,PM_peak,1007
19976,Collingwood,PM_late,152
19977,North Richmond,pre_AM_peak,77
19977,North Richmond,AM_peak,566
19977,North Richmond,interpeak,768
19977,North Richmond,PM_peak,1497
19977,North Richmond,PM_late,241
19978,West Richmond,pre_AM_peak,46
19978,West Richmond,AM_peak,335
19978,West Richmond,interpeak,254
19978,West Richmond,PM_peak,613
19978,West Richmond,PM_late,155
19979,Jolimont,pre_AM_peak,57
19979,Jolimont,AM_peak,149
19979,Jolimont,interpeak,330
19979,Jolimont,PM_peak,1306
19979,Jolimont,PM_late,641
19983,Macleod,pre_AM_peak,78
19983,Macleod,AM_peak,522
19983,Macleod,interpeak,189
19983,Macleod,PM_peak,179
19983,Macleod,PM_late,53
19984,Watsonia,pre_AM_peak,162
19984,Watsonia,AM_peak,926
19984,Watsonia,interpeak,220
19984,Watsonia,PM_peak,253
19984,Watsonia,PM_late,83
19985,Greensborough,pre_AM_peak,148
19985,Greensborough,AM_peak,592
19985,Greensborough,interpeak,223
19985,Greensborough,PM_peak,169
19985,Greensborough,PM_late,46
19986,Montmorency,pre_AM_peak,49
19986,Montmorency,AM_peak,307
19986,Montmorency,interpeak,97
19986,Montmorency,PM_peak,51
19986,Montmorency,PM_late,43
19987,Eltham,pre_AM_peak,70
19987,Eltham,AM_peak,197
19987,Eltham,interpeak,91
19987,Eltham,PM_peak,104
19987,Eltham,PM_late,21
19988,Diamond Creek,pre_AM_peak,52
19988,Diamond Creek,AM_peak,208
19988,Diamond Creek,interpeak,53
19988,Diamond Creek,PM_peak,56
19988,Diamond Creek,PM_late,50
19989,Wattle Glen,pre_AM_peak,21
19989,Wattle Glen,AM_peak,19
19989,Wattle Glen,interpeak,23
19989,Wattle Glen,PM_peak,18
19989,Wattle Glen,PM_late,24
19990,Hurstbridge,pre_AM_peak,49
19990,Hurstbridge,AM_peak,85
19990,Hurstbridge,interpeak,50
19990,Hurstbridge,PM_peak,46
19990,Hurstbridge,PM_late,54
19991,Williamstown,pre_AM_peak,46
19991,Williamstown,AM_peak,143
19991,Williamstown,interpeak,121
19991,Williamstown,PM_peak,95
19991,Williamstown,PM_late,37
19992,Williamstown Beach,pre_AM_peak,42
19992,Williamstown Beach,AM_peak,215
19992,Williamstown Beach,interpeak,161
19992,Williamstown Beach,PM_peak,156
19992,Williamstown Beach,PM_late,45
19993,North Williamstown,pre_AM_peak,49
19993,North Williamstown,AM_peak,449
19993,North Williamstown,interpeak,176
19993,North Williamstown,PM_peak,172
19993,North Williamstown,PM_late,54
19994,Newport,pre_AM_peak,244
19994,Newport,AM_peak,2105
19994,Newport,interpeak,816
19994,Newport,PM_peak,596
19994,Newport,PM_late,146
19995,Spotswood,pre_AM_peak,18
19995,Spotswood,AM_peak,157
19995,Spotswood,interpeak,96
19995,Spotswood,PM_peak,122
19995,Spotswood,PM_late,21
19996,Yarraville,pre_AM_peak,141
19996,Yarraville,AM_peak,1374
19996,Yarraville,interpeak,626
19996,Yarraville,PM_peak,546
19996,Yarraville,PM_late,150
19997,Seddon,pre_AM_peak,93
19997,Seddon,AM_peak,802
19997,Seddon,interpeak,311
19997,Seddon,PM_peak,272
19997,Seddon,PM_late,53
20000,Watergardens,pre_AM_peak,718
20000,Watergardens,AM_peak,2224
20000,Watergardens,interpeak,1075
20000,Watergardens,PM_peak,560
20000,Watergardens,PM_late,120
20001,Keilor Plains,pre_AM_peak,279
20001,Keilor Plains,AM_peak,1349
20001,Keilor Plains,interpeak,407
20001,Keilor Plains,PM_peak,186
20001,Keilor Plains,PM_late,47
20002,St Albans,pre_AM_peak,241
20002,St Albans,AM_peak,1303
20002,St Albans,interpeak,1157
20002,St Albans,PM_peak,612
20002,St Albans,PM_late,99
20003,Ginifer,pre_AM_peak,242
20003,Ginifer,AM_peak,1055
20003,Ginifer,interpeak,521
20003,Ginifer,PM_peak,501
20003,Ginifer,PM_late,50
20004,Albion,pre_AM_peak,159
20004,Albion,AM_peak,673
20004,Albion,interpeak,340
20004,Albion,PM_peak,208
20004,Albion,PM_late,51
20005,Epping,pre_AM_peak,319
20005,Epping,AM_peak,856
20005,Epping,interpeak,752
20005,Epping,PM_peak,570
20005,Epping,PM_late,85
20006,Lalor,pre_AM_peak,255
20006,Lalor,AM_peak,883
20006,Lalor,interpeak,408
20006,Lalor,PM_peak,190
20006,Lalor,PM_late,55
20007,Thomastown,pre_AM_peak,298
20007,Thomastown,AM_peak,786
20007,Thomastown,interpeak,489
20007,Thomastown,PM_peak,372
20007,Thomastown,PM_late,42
20008,Keon Park,pre_AM_peak,114
20008,Keon Park,AM_peak,398
20008,Keon Park,interpeak,187
20008,Keon Park,PM_peak,311
20008,Keon Park,PM_late,52
20009,Ruthven,pre_AM_peak,102
20009,Ruthven,AM_peak,472
20009,Ruthven,interpeak,186
20009,Ruthven,PM_peak,99
20009,Ruthven,PM_late,55
20010,Reservoir,pre_AM_peak,496
20010,Reservoir,AM_peak,1406
20010,Reservoir,interpeak,922
20010,Reservoir,PM_peak,789
20010,Reservoir,PM_late,257
20011,Regent,pre_AM_peak,82
20011,Regent,AM_peak,674
20011,Regent,interpeak,177
20011,Regent,PM_peak,174
20011,Regent,PM_late,55
20012,Preston,pre_AM_peak,95
20012,Preston,AM_peak,672
20012,Preston,interpeak,497
20012,Preston,PM_peak,576
20012,Preston,PM_late,100
20013,Bell,pre_AM_peak,87
20013,Bell,AM_peak,604
20013,Bell,interpeak,285
20013,Bell,PM_peak,295
20013,Bell,PM_late,47
20014,Thornbury,pre_AM_peak,87
20014,Thornbury,AM_peak,1095
20014,Thornbury,interpeak,313
20014,Thornbury,PM_peak,391
20014,Thornbury,PM_late,78
20015,Croxton,pre_AM_peak,90
20015,Croxton,AM_peak,737
20015,Croxton,interpeak,246
20015,Croxton,PM_peak,255
20015,Croxton,PM_late,81
20016,Northcote,pre_AM_peak,48
20016,Northcote,AM_peak,343
20016,Northcote,interpeak,198
20016,Northcote,PM_peak,298
20016,Northcote,PM_late,53
20017,Merri,pre_AM_peak,50
20017,Merri,AM_peak,214
20017,Merri,interpeak,99
20017,Merri,PM_peak,151
20017,Merri,PM_late,40
20019,Rushall,pre_AM_peak,22
20019,Rushall,AM_peak,62
20019,Rushall,interpeak,44
20019,Rushall,PM_peak,25
20019,Rushall,PM_late,25
20021,Sunshine,pre_AM_peak,345
20021,Sunshine,AM_peak,1832
20021,Sunshine,interpeak,1164
20021,Sunshine,PM_peak,1804
20021,Sunshine,PM_late,268
20022,Tottenham,pre_AM_peak,93
20022,Tottenham,AM_peak,833
20022,Tottenham,interpeak,294
20022,Tottenham,PM_peak,306
20022,Tottenham,PM_late,54
20023,West Footscray,pre_AM_peak,157
20023,West Footscray,AM_peak,1116
20023,West Footscray,interpeak,310
20023,West Footscray,PM_peak,434
20023,West Footscray,PM_late,49
20024,Middle Footscray,pre_AM_peak,51
20024,Middle Footscray,AM_peak,386
20024,Middle Footscray,interpeak,166
20024,Middle Footscray,PM_peak,167
20024,Middle Footscray,PM_late,53
20025,Footscray,pre_AM_peak,1188
20025,Footscray,AM_peak,6788
20025,Footscray,interpeak,6015
20025,Footscray,PM_peak,7743
20025,Footscray,PM_late,1524
20026,South Kensington,pre_AM_peak,79
20026,South Kensington,AM_peak,734
20026,South Kensington,interpeak,408
20026,South Kensington,PM_peak,410
20026,South Kensington,PM_late,88
20027,Flemington Racecourse,pre_AM_peak,52
20027,Flemington Racecourse,AM_peak,48
20027,Flemington Racecourse,interpeak,54
20027,Flemington Racecourse,PM_peak,55
20027,Flemington Racecourse,PM_late,175
20028,Showgrounds,pre_AM_peak,52
20028,Showgrounds,AM_peak,53
20028,Showgrounds,interpeak,48
20028,Showgrounds,PM_peak,56
20028,Showgrounds,PM_late,49
20030,Broadmeadows,pre_AM_peak,202
20030,Broadmeadows,AM_peak,638
20030,Broadmeadows,interpeak,851
20030,Broadmeadows,PM_peak,890
20030,Broadmeadows,PM_late,128
20031,Jacana,pre_AM_peak,47
20031,Jacana,AM_peak,107
20031,Jacana,interpeak,52
20031,Jacana,PM_peak,29
20031,Jacana,PM_late,18
20032,Glenroy,pre_AM_peak,366
20032,Glenroy,AM_peak,1764
20032,Glenroy,interpeak,1020
20032,Glenroy,PM_peak,689
20032,Glenroy,PM_late,182
20033,Oak Park,pre_AM_peak,254
20033,Oak Park,AM_peak,1175
20033,Oak Park,interpeak,405
20033,Oak Park,PM_peak,365
20033,Oak Park,PM_late,73
20034,Pascoe Vale,pre_AM_peak,47
20034,Pascoe Vale,AM_peak,428
20034,Pascoe Vale,interpeak,182
20034,Pascoe Vale,PM_peak,140
20034,Pascoe Vale,PM_late,21
20035,Strathmore,pre_AM_peak,52
20035,Strathmore,AM_peak,596
20035,Strathmore,interpeak,215
20035,Strathmore,PM_peak,205
20035,Strathmore,PM_late,50
20036,Glenbervie,pre_AM_peak,99
20036,Glenbervie,AM_peak,462
20036,Glenbervie,interpeak,145
20036,Glenbervie,PM_peak,83
20036,Glenbervie,PM_late,49
20037,Essendon,pre_AM_peak,315
20037,Essendon,AM_peak,1912
20037,Essendon,interpeak,865
20037,Essendon,PM_peak,1196
20037,Essendon,PM_late,163
20038,Moonee Ponds,pre_AM_peak,216
20038,Moonee Ponds,AM_peak,1576
20038,Moonee Ponds,interpeak,931
20038,Moonee Ponds,PM_peak,976
20038,Moonee Ponds,PM_late,236
20039,Ascot Vale,pre_AM_peak,105
20039,Ascot Vale,AM_peak,812
20039,Ascot Vale,interpeak,303
20039,Ascot Vale,PM_peak,216
20039,Ascot Vale,PM_late,46
20040,Newmarket,pre_AM_peak,103
20040,Newmarket,AM_peak,714
20040,Newmarket,interpeak,469
20040,Newmarket,PM_peak,499
20040,Newmarket,PM_late,105
20041,Kensington,pre_AM_peak,51
20041,Kensington,AM_peak,738
20041,Kensington,interpeak,303
20041,Kensington,PM_peak,334
20041,Kensington,PM_late,50
20042,Box Hill,pre_AM_peak,474
20042,Box Hill,AM_peak,2612
20042,Box Hill,interpeak,2409
20042,Box Hill,PM_peak,2556
20042,Box Hill,PM_late,466
22180,Southern Cross,pre_AM_peak,4720
22180,Southern Cross,AM_peak,3642
22180,Southern Cross,interpeak,8143
22180,Southern Cross,PM_peak,28665
22180,Southern Cross,PM_late,5104
40220,Roxburgh Park,pre_AM_peak,217
40220,Roxburgh Park,AM_peak,727
40220,Roxburgh Park,interpeak,393
40220,Roxburgh Park,PM_peak,279
40220,Roxburgh Park,PM_late,51
40221,Craigieburn,pre_AM_peak,733
40221,Craigieburn,AM_peak,2914
40221,Craigieburn,interpeak,969
40221,Craigieburn,PM_peak,567
40221,Craigieburn,PM_late,159
44817,Coolaroo,pre_AM_peak,104
44817,Coolaroo,AM_peak,490
44817,Coolaroo,interpeak,246
44817,Coolaroo,PM_peak,150
44817,Coolaroo,PM_late,49
45793,Lynbrook,pre_AM_peak,219
45793,Lynbrook,AM_peak,976
45793,Lynbrook,interpeak,283
45793,Lynbrook,PM_peak,129
45793,Lynbrook,PM_late,49
45794,Cardinia Road,pre_AM_peak,377
45794,Cardinia Road,AM_peak,597
45794,Cardinia Road,interpeak,349
45794,Cardinia Road,PM_peak,175
45794,Cardinia Road,PM_late,47
45795,South Morang,pre_AM_peak,128
45795,South Morang,AM_peak,361
45795,South Morang,interpeak,152
45795,South Morang,PM_peak,136
45795,South Morang,PM_late,37
46468,Williams Landing,pre_AM_peak,539
46468,Williams Landing,AM_peak,2664
46468,Williams Landing,interpeak,833
46468,Williams Landing,PM_peak,501
46468,Williams Landing,PM_late,92
49343,Union,pre_AM_peak,102
49343,Union,AM_peak,1013
49343,Union,interpeak,361
49343,Union,PM_peak,325
49343,Union,PM_late,40
49458,East Pakenham,pre_AM_peak,20
49458,East Pakenham,AM_peak,23
49458,East Pakenham,interpeak,16
49458,East Pakenham,PM_peak,24
49458,East Pakenham,PM_late,21
52095,Southland,pre_AM_peak,46
52095,Southland,AM_peak,248
52095,Southland,interpeak,475
52095,Southland,PM_peak,503
52095,Southland,PM_late,105
52159,Middle Gorge,pre_AM_peak,35
52159,Middle Gorge,AM_peak,142
52159,Middle Gorge,interpeak,32
52159,Middle Gorge,PM_peak,98
52159,Middle Gorge,PM_late,17
52160,Hawkstowe,pre_AM_peak,138
52160,Hawkstowe,AM_peak,449
52160,Hawkstowe,interpeak,110
52160,Hawkstowe,PM_peak,53
52160,Hawkstowe,PM_late,44
52161,Mernda,pre_AM_peak,435
52161,Mernda,AM_peak,1233
52161,Mernda,interpeak,405
52161,Mernda,PM_peak,307
52161,Mernda,PM_late,51
